name,postcode,longitude,latitude
lad,w93pe,-0.200152384706,51.5252490404
bob,sw56pb,,
vas,ec1m 4df,-0.101235205728,51.5209916236
fdas,w93px,-0.201070652027,51.5249933551
weq,w93pe,-0.200152384706,51.5252490404
ed,sw74nn,-0.182490596565,51.4912729227
ana,E145EP,-0.0205295920736,51.5043247539
